[
  {
    "id": "bj-001",
    "name": "common place",
    "address": "北京市顺义区顺沙路98号",
    "city": "北京",
    "country": "中国",
    "coordinates": { "latitude": 40.128, "longitude": 116.6543 },
    "brands": ["guidi", "peng tai", "mutedance", "marc le bihan", "devoa"],
    "style": ["暗黑", "先锋", "工匠"],
    "isOpen": true,
    "phone": ["13910449903", "13910909413"],
    "hours": "10:00-18:00"
  },
  {
    "id": "bj-002",
    "name": "Underneath",
    "address": "北京市朝阳区酒仙桥街道798艺术园区中二小街三上手工皮具对面",
    "city": "北京",
    "country": "中国",
    "coordinates": { "latitude": 39.9828, "longitude": 116.494 },
    "brands": ["ISSEY MIYAKE", "yohji", "CXVI", "jurgen michaelsen"],
    "style": ["先锋"],
    "isOpen": true,
    "phone": ["15301302005"],
    "hours": "13:30-20:30"
  },
  {
    "id": "bj-003",
    "name": "ANCHORET 幸福三村店",
    "address": "北京市朝阳区幸福三村五巷",
    "city": "北京",
    "country": "中国",
    "coordinates": { "latitude": 39.956, "longitude": 116.4488 },
    "brands": [
      "Paul Harnden",
      "Archivio",
      "John Alexander Skelton",
      "Ziggy Chen"
    ],
    "style": ["先锋", "工匠"],
    "isOpen": true,
    "phone": ["010-84004600"],
    "hours": "12:00-21:00"
  },
  {
    "id": "bj-004",
    "name": "ANCHORET 三里屯店",
    "address": "北京市朝阳区三里屯太古里北区地下一层NLG-31B",
    "city": "北京",
    "country": "中国",
    "coordinates": { "latitude": 39.9342, "longitude": 116.4536 },
    "brands": [
      "Paul Harnden",
      "Archivio",
      "John Alexander Skelton",
      "Ziggy Chen"
    ],
    "style": ["先锋", "工匠"],
    "isOpen": true,
    "phone": ["010-84004630"],
    "hours": "10:00-22:00"
  },
  {
    "id": "bj-005",
    "name": "尖货贩售",
    "address": "北京市轿子胡同35号",
    "city": "北京",
    "country": "中国",
    "coordinates": { "latitude": 39.931, "longitude": 116.407 },
    "brands": ["COMME des GARÇONS"],
    "style": ["先锋"],
    "isOpen": true,
    "phone": ["18317094759"],
    "hours": "11:00-21:00"
  },
  {
    "id": "bj-006",
    "name": "Utopia the Shelter",
    "address": "北京市顺义区任李路南河段31号",
    "city": "北京",
    "country": "中国",
    "coordinates": { "latitude": 40.132, "longitude": 116.642 },
    "brands": [
      "Dale of Norway",
      "Kanata",
      "Woolrich",
      "Filson",
      "Pendleton",
      "Ralph Lauren"
    ],
    "style": ["美式复古", "vintage"],
    "isOpen": true,
    "phone": ["18310912847"],
    "hours": "13:00-20:00"
  },
  {
    "id": "bj-007",
    "name": "Shop Neun 蒜泥",
    "address": "北京市朝阳区百子湾路29号爱工场2栋109",
    "city": "北京",
    "country": "中国",
    "coordinates": { "latitude": 39.898, "longitude": 116.489 },
    "brands": ["设计师品牌"],
    "style": ["设计师品牌", "女装"],
    "isOpen": true,
    "hours": "11:00-18:00"
  },
  {
    "id": "bj-008",
    "name": "cell vintage shop",
    "address": "北京市东城区前肖家胡同与箭厂胡同交叉口西北20米",
    "city": "北京",
    "country": "中国",
    "coordinates": { "latitude": 39.936, "longitude": 116.415 },
    "brands": ["设计师品牌"],
    "style": ["中古", "vintage", "设计师品牌"],
    "isOpen": true
  },
  {
    "id": "bj-009",
    "name": "莽 vintage",
    "address": "北京市朝阳区酒仙桥798艺术园区中一街32号",
    "city": "北京",
    "country": "中国",
    "coordinates": { "latitude": 39.9835, "longitude": 116.4955 },
    "brands": ["Vivienne Westwood", "D&G", "Jean Paul Gaultier"],
    "style": ["中古", "vintage", "设计师品牌"],
    "isOpen": true,
    "hours": "13:00-20:00"
  },
  {
    "id": "bj-010",
    "name": "den.",
    "address": "北京市朝阳区王四营乡道口村8号五方park5幢505",
    "city": "北京",
    "country": "中国",
    "coordinates": { "latitude": 39.871, "longitude": 116.542 },
    "brands": [
      "Jean Paul Gaultier",
      "Robrto Cavalli",
      "Dolce&Gabbana",
      "L.G.B.",
      "Share Spirit",
      "Ann Demeulemeester",
      "Blumarine",
      "Vivienne Westwood",
      "Prada"
    ],
    "style": ["vintage", "archive"],
    "isOpen": true,
    "phone": ["15801641926"],
    "hours": "13:00-20:00"
  },
  {
    "id": "bj-011",
    "name": "栋梁",
    "address": "北京市朝阳区新城国际2号楼102铺",
    "city": "北京",
    "country": "中国",
    "coordinates": { "latitude": 39.942, "longitude": 116.461 },
    "brands": ["Dries Van Noten", "Phoebe philo", "设计师品牌"],
    "style": ["工匠"],
    "isOpen": true,
    "phone": ["010-84047648"],
    "hours": "09:00-21:00"
  },
  {
    "id": "bj-012",
    "name": "Moonlery云上买手店",
    "address": "北京市朝阳区酒仙桥街道七星路与陶瓷三街交叉口北48米",
    "city": "北京",
    "country": "中国",
    "coordinates": { "latitude": 39.981, "longitude": 116.491 },
    "brands": ["DVN", "CDG"],
    "style": ["vintage"],
    "isOpen": true
  },
  {
    "id": "bj-013",
    "name": "12037 Beijing",
    "address": "北京市朝阳区798艺术区中二小街",
    "city": "北京",
    "country": "中国",
    "coordinates": { "latitude": 39.983, "longitude": 116.4945 },
    "brands": ["Jean Paul Gaultier", "Vivienne"],
    "style": ["亚文化", "vintage"],
    "isOpen": true,
    "phone": ["13915714992"],
    "hours": "13:00-21:00"
  },
  {
    "id": "gz-001",
    "name": "BAD MARKET",
    "address": "广州市越秀区庙前西街9号",
    "city": "广州",
    "country": "中国",
    "coordinates": { "latitude": 23.1325, "longitude": 113.2766 },
    "brands": ["日本设计师品牌"],
    "style": ["日系"],
    "isOpen": true,
    "phone": ["020-37574781"],
    "hours": "10:00-22:00"
  },
  {
    "id": "gz-002",
    "name": "JahJah vintage",
    "address": "广州市启明一马路6号一层右边五羊店",
    "city": "广州",
    "country": "中国",
    "coordinates": { "latitude": 23.123, "longitude": 113.285 },
    "brands": [
      "Rick Owens",
      "Ann Demeulemeester",
      "Helmut Lang",
      "Jean Paul Gaultier"
    ],
    "style": ["先锋", "暗黑"],
    "isOpen": true
  },
  {
    "id": "gz-003",
    "name": "ALTERATIO",
    "address": "广州市越秀区均益路5号2层",
    "city": "广州",
    "country": "中国",
    "coordinates": { "latitude": 23.129, "longitude": 113.262 },
    "brands": ["设计师品牌"],
    "style": ["设计师品牌集合店"],
    "isOpen": true,
    "phone": ["17727696093"],
    "hours": "11:00-20:00"
  },
  {
    "id": "gz-004",
    "name": "SND",
    "address": "广州市越秀区春园后街二号",
    "city": "广州",
    "country": "中国",
    "coordinates": { "latitude": 23.134, "longitude": 113.278 },
    "brands": ["lemaire", "MM6", "kiko", "undercover", "rarely alike"],
    "style": ["设计师品牌", "女装"],
    "isOpen": true,
    "phone": ["18198939798"],
    "hours": "11:00-20:00"
  },
  {
    "id": "gz-005",
    "name": "KOMOREBI",
    "address": "天河区华强路2号富力盈丰大厦435室",
    "city": "广州",
    "country": "中国",
    "coordinates": { "latitude": 23.151, "longitude": 113.331 },
    "brands": ["BeautifulPeople", "EZUMi", "SHINYAKOZUKA", "MameKurogouchi"],
    "style": ["工匠"],
    "isOpen": true,
    "hours": "12:00-20:00"
  },
  {
    "id": "gz-006",
    "name": "一尚门",
    "address": "天河区K11艺术购物中心3楼L301-305",
    "city": "广州",
    "country": "中国",
    "coordinates": { "latitude": 23.138, "longitude": 113.324 },
    "brands": ["DIESEL", "Marrknull", "FENGCHENWANG"],
    "style": ["设计师品牌", "女装"],
    "isOpen": true,
    "hours": "10:00-22:00"
  },
  {
    "id": "gz-007",
    "name": "Fluxeeker SPACE",
    "address": "广州市越秀区新河浦四横路23号",
    "city": "广州",
    "country": "中国",
    "coordinates": { "latitude": 23.127, "longitude": 113.292 },
    "brands": ["设计师品牌"],
    "style": ["暗黑", "银饰"],
    "isOpen": true,
    "phone": ["15815820428"],
    "hours": "14:00-20:00"
  },
  {
    "id": "gz-008",
    "name": "SENSEVER",
    "address": "广州市",
    "city": "广州",
    "country": "中国",
    "coordinates": { "latitude": 23.1291, "longitude": 113.2644 },
    "brands": ["设计师品牌"],
    "style": ["女装"],
    "isOpen": false,
    "hours": "需预约"
  },
  {
    "id": "gz-009",
    "name": "不设季折扣买手店",
    "address": "海珠区江海大道红卫新村西华十五巷1号红星学校生活美育社区3号楼",
    "city": "广州",
    "country": "中国",
    "coordinates": { "latitude": 23.085, "longitude": 113.321 },
    "brands": ["Yohji Yamamoto", "Martin Margiela"],
    "style": ["暗黑", "先锋", "vintage"],
    "isOpen": true
  },
  {
    "id": "gz-010",
    "name": "martmartmart",
    "address": "广州市南大公路160号顺威创意园1栋103室",
    "city": "广州",
    "country": "中国",
    "coordinates": { "latitude": 23.055, "longitude": 113.402 },
    "brands": ["balenciaga", "rafsimons", "vetements"],
    "style": ["设计师品牌", "archive"],
    "isOpen": true
  },
  {
    "id": "gz-011",
    "name": "Taide vintage",
    "address": "广州市越秀区启明四马路9号2层",
    "city": "广州",
    "country": "中国",
    "coordinates": { "latitude": 23.1225, "longitude": 113.2845 },
    "brands": ["设计师品牌"],
    "style": ["视觉系", "先锋"],
    "isOpen": true
  },
  {
    "id": "gz-012",
    "name": "LEC庙前买手店",
    "address": "广州市越秀区东山口庙前西街42号",
    "city": "广州",
    "country": "中国",
    "coordinates": { "latitude": 23.1328, "longitude": 113.277 },
    "brands": ["设计师品牌"],
    "style": ["设计师品牌", "女装"],
    "isOpen": true,
    "phone": ["020-87006234"],
    "hours": "10:00-22:00"
  },
  {
    "id": "gz-013",
    "name": "SECULAR",
    "address": "广州市番禺区南村镇翠环街7号",
    "city": "广州",
    "country": "中国",
    "coordinates": { "latitude": 23.008, "longitude": 113.352 },
    "brands": ["Rick Owens"],
    "style": ["先锋", "暗黑"],
    "isOpen": true,
    "phone": ["13106777351", "17603000754"],
    "hours": "13:00-22:00"
  },
  {
    "id": "gz-014",
    "name": "moromoro",
    "address": "广州市越秀区庙前西街45号",
    "city": "广州",
    "country": "中国",
    "coordinates": { "latitude": 23.1326, "longitude": 113.2768 },
    "brands": ["设计师品牌"],
    "style": ["设计师品牌", "女装"],
    "isOpen": true,
    "phone": ["19074178684"],
    "hours": "11:00-22:00"
  },
  {
    "id": "gz-015",
    "name": "AtypiA",
    "address": "烈士陵园地铁站C口旁星巴克臻选四楼",
    "city": "广州",
    "country": "中国",
    "coordinates": { "latitude": 23.126, "longitude": 113.281 },
    "brands": [],
    "style": ["先锋"],
    "isOpen": true,
    "phone": ["18824719853"],
    "hours": "13:00-20:00"
  },
  {
    "id": "gz-016",
    "name": "NOTHING HERE",
    "address": "广州市荔湾区永庆坊十三甫南15号楼",
    "city": "广州",
    "country": "中国",
    "coordinates": { "latitude": 23.118, "longitude": 113.242 },
    "brands": ["设计师品牌"],
    "style": ["暗黑", "哥特"],
    "isOpen": true,
    "hours": "12:00-24:00",
    "rest": "周二店休"
  },
  {
    "id": "gz-017",
    "name": "WoodenMountains 木屿名集",
    "address": "广州市海珠区黄埔古港惇傭街10号",
    "city": "广州",
    "country": "中国",
    "coordinates": { "latitude": 23.082, "longitude": 113.355 },
    "brands": ["设计师品牌"],
    "style": ["工匠", "女装", "设计师品牌集合店"],
    "isOpen": true,
    "phone": ["13711677805"],
    "hours": "11:00-20:00"
  },
  {
    "id": "gz-018",
    "name": "Losttag vintage",
    "address": "广州市番禺区南大路162号",
    "city": "广州",
    "country": "中国",
    "coordinates": { "latitude": 23.0555, "longitude": 113.4015 },
    "brands": ["vintage"],
    "style": ["美式vintage"],
    "isOpen": true,
    "phone": ["18122368086"],
    "hours": "14:00-21:00"
  },
  {
    "id": "gz-019",
    "name": "麦vintage",
    "address": "广州市越秀区惠吉西路44号3楼",
    "city": "广州",
    "country": "中国",
    "coordinates": { "latitude": 23.1305, "longitude": 113.273 },
    "brands": ["vintage"],
    "style": ["vintage"],
    "isOpen": true,
    "phone": ["13160885413"],
    "hours": "13:00-21:00"
  },
  {
    "id": "sz-001",
    "name": "Zovin Boutique",
    "address": "深圳市福田区彩田北路3030号展览大厦F1层",
    "city": "深圳",
    "country": "中国",
    "coordinates": { "latitude": 22.552, "longitude": 114.068 },
    "brands": [
      "Rick Owens",
      "Guidi",
      "BBS",
      "Yohji",
      "Y's",
      "m.a+",
      "Viridi-anne"
    ],
    "style": ["先锋", "工匠"],
    "isOpen": true,
    "phone": ["0755-83220436"]
  },
  {
    "id": "sz-002",
    "name": "INNER Archive",
    "address": "深圳市龙岗区万科天誉10A",
    "city": "深圳",
    "country": "中国",
    "coordinates": { "latitude": 22.592, "longitude": 114.135 },
    "brands": ["Number Nine", "yohji", "Undercover"],
    "style": ["工匠", "先锋", "archive"],
    "isOpen": false,
    "hours": "需预约"
  },
  {
    "id": "sz-003",
    "name": "the 30half 万象天地店",
    "address": "深圳市南山区深南大道9668号深圳万象天地L3层",
    "city": "深圳",
    "country": "中国",
    "coordinates": { "latitude": 22.534, "longitude": 113.949 },
    "brands": ["设计师品牌"],
    "style": ["设计师品牌集合店"],
    "isOpen": true
  },
  {
    "id": "sz-004",
    "name": "the 30half 万象前海店",
    "address": "深圳市南山区桂湾四路169号万象前海",
    "city": "深圳",
    "country": "中国",
    "coordinates": { "latitude": 22.525, "longitude": 113.898 },
    "brands": ["设计师品牌"],
    "style": ["设计师品牌集合店"],
    "isOpen": true
  },
  {
    "id": "sz-005",
    "name": "A SURNAME BY LABELHOOD",
    "address": "深圳市科苑南路2888号深圳湾万象城3层L336",
    "city": "深圳",
    "country": "中国",
    "coordinates": { "latitude": 22.518, "longitude": 113.937 },
    "brands": ["设计师品牌"],
    "style": ["设计师品牌"],
    "isOpen": true,
    "hours": "10:00-22:00"
  },
  {
    "id": "sz-006",
    "name": "Lacuna Monologue",
    "address": "深圳市福田区新燕兰时装中心1层A09&A10",
    "city": "深圳",
    "country": "中国",
    "coordinates": { "latitude": 22.545, "longitude": 114.058 },
    "brands": ["设计师品牌"],
    "style": ["先锋"],
    "isOpen": true
  },
  {
    "id": "sz-007",
    "name": "SND（深圳）",
    "address": "深圳市南山区后海滨路3288号后海汇L1-18号",
    "city": "深圳",
    "country": "中国",
    "coordinates": { "latitude": 22.505, "longitude": 113.935 },
    "brands": ["设计师品牌"],
    "style": ["设计师品牌集合店"],
    "isOpen": true,
    "hours": "10:00-22:00"
  },
  {
    "id": "sz-008",
    "name": "HAUS NOWHERE",
    "address": "深圳市南山区深南大道9668号深圳万象天地L1层",
    "city": "深圳",
    "country": "中国",
    "coordinates": { "latitude": 22.5342, "longitude": 113.9495 },
    "brands": ["设计师品牌"],
    "style": ["设计师品牌集合店"],
    "isOpen": true,
    "hours": "10:00-22:00"
  },
  {
    "id": "sz-009",
    "name": "詩在",
    "address": "深圳市南山区蛇口海运路1号太子湾花园城Villa一号楼二楼",
    "city": "深圳",
    "country": "中国",
    "coordinates": { "latitude": 22.482, "longitude": 113.912 },
    "brands": ["设计师品牌"],
    "style": ["工匠"],
    "isOpen": true,
    "phone": ["18668201680"],
    "hours": "11:00-22:00"
  },
  {
    "id": "sz-010",
    "name": "angelmaybe",
    "address": "深圳市福田区园岭街道八卦岭工业区618栋803",
    "city": "深圳",
    "country": "中国",
    "coordinates": { "latitude": 22.558, "longitude": 114.082 },
    "brands": ["设计师品牌", "vintage"],
    "style": ["vintage", "先锋"],
    "isOpen": true,
    "hours": "周三至周日14:00-20:00"
  },
  {
    "id": "sz-011",
    "name": "YESTERDAY 昨日古着",
    "address": "深圳市福田区梅康路6号理想公馆F24层",
    "city": "深圳",
    "country": "中国",
    "coordinates": { "latitude": 22.538, "longitude": 114.035 },
    "brands": ["vintage"],
    "style": ["vintage"],
    "isOpen": true
  },
  {
    "id": "sz-012",
    "name": "栋梁（深圳）",
    "address": "深圳市福田区滨河大道9283号中洲湾C Future City F1层",
    "city": "深圳",
    "country": "中国",
    "coordinates": { "latitude": 22.528, "longitude": 114.055 },
    "brands": ["UMA WANG", "Ann Demeulemeester", "Dries Van Noten"],
    "style": ["工匠"],
    "isOpen": true,
    "phone": ["17279811226"],
    "hours": "10:00-22:00"
  },
  {
    "id": "sz-013",
    "name": "杂ZA",
    "address": "深圳市福田区泰然六路苍松大厦13A楼06室",
    "city": "深圳",
    "country": "中国",
    "coordinates": { "latitude": 22.532, "longitude": 114.042 },
    "brands": ["设计师品牌"],
    "style": ["工匠", "设计师品牌集合店"],
    "isOpen": false,
    "phone": ["13423882223"],
    "hours": "需预约 12:00-20:00"
  },
  {
    "id": "sz-014",
    "name": "Lion_resells",
    "address": "深圳市福田区莲花北雕塑家园2716",
    "city": "深圳",
    "country": "中国",
    "coordinates": { "latitude": 22.562, "longitude": 114.058 },
    "brands": ["奢侈品牌", "潮牌"],
    "style": ["vintage", "中古", "集合店"],
    "isOpen": false,
    "hours": "工作日需预约，周六日15:00-20:00"
  },
  {
    "id": "sz-015",
    "name": "野生仓 VINTAGE STORE",
    "address": "深圳福田区雕塑家园3030",
    "city": "深圳",
    "country": "中国",
    "coordinates": { "latitude": 22.5625, "longitude": 114.0575 },
    "brands": ["vintage"],
    "style": ["美式复古"],
    "isOpen": true,
    "hours": "13:00-22:00"
  },
  {
    "id": "hk-001",
    "name": "ink clothing",
    "address": "香港湾仔区铜锣湾百德新街53号海德大厦2A",
    "city": "香港",
    "country": "中国",
    "coordinates": { "latitude": 22.28, "longitude": 114.185 },
    "brands": [
      "ccp",
      "bbs",
      "gas",
      "jas",
      "ED",
      "ro",
      "layer0",
      "M.A+",
      "guidi"
    ],
    "style": ["暗黑", "工匠", "先锋"],
    "isOpen": true,
    "phone": ["00852-28082381"],
    "hours": "12:00-21:00"
  },
  {
    "id": "hk-002",
    "name": "izumi.studios",
    "address": "158 Connaught Road Central, Hong Kong",
    "city": "香港",
    "country": "中国",
    "coordinates": { "latitude": 22.287, "longitude": 114.15 },
    "brands": ["cdg", "yohji", "raf", "nn", "uc", "walter"],
    "style": ["先锋", "archive"],
    "isOpen": true
  },
  {
    "id": "hk-003",
    "name": "DEL store",
    "address": "香港湾仔区百德新街与京士顿街交叉口西南20米",
    "city": "香港",
    "country": "中国",
    "coordinates": { "latitude": 22.2805, "longitude": 114.1845 },
    "brands": ["日本品牌"],
    "style": ["日系"],
    "isOpen": true,
    "phone": ["00852-98010994"]
  },
  {
    "id": "hk-004",
    "name": "STILL HOUSE",
    "address": "香港铜锣湾白沙道13号一楼",
    "city": "香港",
    "country": "中国",
    "coordinates": { "latitude": 22.281, "longitude": 114.182 },
    "brands": ["日本品牌"],
    "style": ["日系"],
    "isOpen": true,
    "phone": ["00852-23127007"]
  },
  {
    "id": "hk-005",
    "name": "Maggie & CO",
    "address": "中环士丹利街66-72号佳德商业大厦802室",
    "city": "香港",
    "country": "中国",
    "coordinates": { "latitude": 22.283, "longitude": 114.155 },
    "brands": ["设计师品牌"],
    "style": ["vintage", "中古"],
    "isOpen": true,
    "hours": "13:00-19:00"
  },
  {
    "id": "hk-006",
    "name": "hula",
    "address": "香港中西区56-58",
    "city": "香港",
    "country": "中国",
    "coordinates": { "latitude": 22.284, "longitude": 114.152 },
    "brands": ["设计师品牌"],
    "style": ["vintage"],
    "isOpen": true,
    "phone": ["00852-25441211"]
  },
  {
    "id": "hk-007",
    "name": "Timefault",
    "address": "尖沙咀加连威老道63号",
    "city": "香港",
    "country": "中国",
    "coordinates": { "latitude": 22.299, "longitude": 114.175 },
    "brands": ["美式vintage"],
    "style": ["美式复古"],
    "isOpen": true
  },
  {
    "id": "hk-008",
    "name": "LACAGO",
    "address": "尖沙咀漆咸道87-105号百利商业中心G21/G25/G26",
    "city": "香港",
    "country": "中国",
    "coordinates": { "latitude": 22.301, "longitude": 114.178 },
    "brands": ["日本品牌"],
    "style": ["日系"],
    "isOpen": true
  },
  {
    "id": "sh-001",
    "name": "sample 采样",
    "address": "上海市徐汇区湖南路街道永福路2号北10米",
    "city": "上海",
    "country": "中国",
    "coordinates": { "latitude": 31.212, "longitude": 121.438 },
    "brands": ["设计师品牌"],
    "style": ["暗黑", "先锋", "vintage"],
    "isOpen": true,
    "phone": ["18217633745"],
    "hours": "11:30-22:00"
  },
  {
    "id": "sh-002",
    "name": "尖货贩售",
    "address": "上海市黄浦区合肥路590号二楼",
    "city": "上海",
    "country": "中国",
    "coordinates": { "latitude": 31.218, "longitude": 121.465 },
    "brands": ["CDG", "JunyaWatanabe", "UNDERCOVER"],
    "style": ["工匠", "先锋", "暗黑"],
    "isOpen": true,
    "phone": ["15811207131"],
    "hours": "11:00-21:00"
  },
  {
    "id": "sh-003",
    "name": "Ziggy Chen",
    "address": "上海市徐汇区太原路74号",
    "city": "上海",
    "country": "中国",
    "coordinates": { "latitude": 31.215, "longitude": 121.452 },
    "brands": ["Ziggy Chen"],
    "style": ["工匠"],
    "isOpen": true,
    "phone": ["021-54591527"],
    "hours": "13:00-21:00"
  },
  {
    "id": "sh-004",
    "name": "PLOY DECOY",
    "address": "上海市徐汇区太原路323号",
    "city": "上海",
    "country": "中国",
    "coordinates": { "latitude": 31.214, "longitude": 121.451 },
    "brands": ["设计师品牌"],
    "style": ["女装", "先锋", "vintage"],
    "isOpen": true,
    "hours": "14:00-22:00"
  },
  {
    "id": "sh-005",
    "name": "ChanYingKang-Space",
    "address": "上海市徐汇区复兴中路1288弄2号",
    "city": "上海",
    "country": "中国",
    "coordinates": { "latitude": 31.22, "longitude": 121.458 },
    "brands": [
      "Alexander Mcqueen",
      "Yohji Yamamoto",
      "Comme des Garcons",
      "ISSEY MIYAKE"
    ],
    "style": ["工匠", "先锋"],
    "isOpen": true,
    "hours": "13:00-20:00"
  },
  {
    "id": "sh-006",
    "name": "agate",
    "address": "上海市黄浦区瑞金二路与复兴中路交叉口南80米",
    "city": "上海",
    "country": "中国",
    "coordinates": { "latitude": 31.219, "longitude": 121.468 },
    "brands": ["yohji"],
    "style": ["先锋"],
    "isOpen": true,
    "phone": ["15301948067"],
    "hours": "13:00-19:30"
  },
  {
    "id": "sh-007",
    "name": "locus",
    "address": "上海市静安区常熟路100弄宝立大厦11号405室",
    "city": "上海",
    "country": "中国",
    "coordinates": { "latitude": 31.225, "longitude": 121.445 },
    "brands": ["bbs", "rickowens", "ROYSTUDIO"],
    "style": ["先锋", "暗黑"],
    "isOpen": true,
    "phone": ["13816500795"],
    "hours": "10:30-21:00"
  },
  {
    "id": "sh-008",
    "name": "eth0s",
    "address": "上海市徐汇区嘉善路253号",
    "city": "上海",
    "country": "中国",
    "coordinates": { "latitude": 31.21, "longitude": 121.455 },
    "brands": ["the soloist", "tb", "ro", "wvb", "visim", "ed", "guidi"],
    "style": ["暗黑", "先锋", "工匠"],
    "isOpen": true,
    "phone": ["021-54665063"],
    "hours": "11:00-22:00"
  },
  {
    "id": "sh-009",
    "name": "CHUICHUI VINTAGE",
    "address": "上海市徐汇区武康路73弄3号楼402",
    "city": "上海",
    "country": "中国",
    "coordinates": { "latitude": 31.213, "longitude": 121.44 },
    "brands": ["yohji", "cdg"],
    "style": ["暗黑", "先锋", "工匠"],
    "isOpen": false,
    "hours": "周二至周日13:00-21:30 需预约"
  },
  {
    "id": "sh-010",
    "name": "栋梁",
    "address": "上海市长宁区武夷路168号1号别墅",
    "city": "上海",
    "country": "中国",
    "coordinates": { "latitude": 31.218, "longitude": 121.428 },
    "brands": ["uma wang", "Maison Margiela", "DRIES VAN NOTEN"],
    "style": ["工匠", "先锋"],
    "isOpen": true,
    "hours": "11:00-20:00"
  },
  {
    "id": "sh-011",
    "name": "Terminal69",
    "address": "上海市徐汇区太原路167号B1",
    "city": "上海",
    "country": "中国",
    "coordinates": { "latitude": 31.2145, "longitude": 121.4515 },
    "brands": ["cdg", "junya", "walter", "jpg", "issey"],
    "style": ["暗黑", "先锋"],
    "isOpen": false,
    "hours": "提前预约"
  },
  {
    "id": "sh-012",
    "name": "AutumnSonata",
    "address": "上海市徐汇区太原路74号",
    "city": "上海",
    "country": "中国",
    "coordinates": { "latitude": 31.2152, "longitude": 121.4522 },
    "brands": [
      "Emma Hope",
      "Phaedo",
      "John Alexander Skelton",
      "Daniela Gregis"
    ],
    "style": ["工匠"],
    "isOpen": true,
    "phone": ["021-64226011"],
    "hours": "13:00-21:00"
  },
  {
    "id": "sh-013",
    "name": "Fanwu-凡物",
    "address": "上海市黄浦区南昌路166弄7号",
    "city": "上海",
    "country": "中国",
    "coordinates": { "latitude": 31.221, "longitude": 121.462 },
    "brands": ["设计师品牌"],
    "style": ["工匠"],
    "isOpen": true,
    "phone": ["17621401094"],
    "hours": "12:00-19:00"
  },
  {
    "id": "sh-014",
    "name": "雨來肆 yulai_boutique",
    "address": "上海市黄浦区陕南邨163号",
    "city": "上海",
    "country": "中国",
    "coordinates": { "latitude": 31.2195, "longitude": 121.464 },
    "brands": [
      "anndemeulemeester",
      "maisonmargiela",
      "driesvannoten",
      "jeanpaulgaultier"
    ],
    "style": ["先锋", "暗黑"],
    "isOpen": true,
    "hours": "15:00-22:00 周一休",
    "rest": "周一休"
  },
  {
    "id": "sh-015",
    "name": "XC273",
    "address": "上海市静安区胶州路273弄12号",
    "city": "上海",
    "country": "中国",
    "coordinates": { "latitude": 31.235, "longitude": 121.442 },
    "brands": ["设计师品牌"],
    "style": ["先锋"],
    "isOpen": true,
    "hours": "11:00-21:00"
  },
  {
    "id": "sh-016",
    "name": "Park Mall",
    "address": "上海市静安区延平路98-1号102室",
    "city": "上海",
    "country": "中国",
    "coordinates": { "latitude": 31.238, "longitude": 121.448 },
    "brands": ["设计师品牌"],
    "style": ["设计师品牌集合店"],
    "isOpen": true,
    "phone": ["19542790788"],
    "hours": "11:00-22:00"
  },
  {
    "id": "sh-017",
    "name": "Times Remake",
    "address": "上海市静安区富民路271号保罗花园内部",
    "city": "上海",
    "country": "中国",
    "coordinates": { "latitude": 31.226, "longitude": 121.452 },
    "brands": ["vintage", "remake"],
    "style": ["vintage", "remake"],
    "isOpen": true,
    "phone": ["13817013461", "15221709874"],
    "hours": "10:00-22:00"
  },
  {
    "id": "sh-018",
    "name": "Trophy Market",
    "address": "上海市静安区长乐路774弄1-22号南华新邨",
    "city": "上海",
    "country": "中国",
    "coordinates": { "latitude": 31.224, "longitude": 121.453 },
    "brands": ["vintage"],
    "style": ["美式复古"],
    "isOpen": true,
    "hours": "12:30-20:30"
  },
  {
    "id": "sh-019",
    "name": "formless store",
    "address": "上海市徐汇区永康路189号",
    "city": "上海",
    "country": "中国",
    "coordinates": { "latitude": 31.2105, "longitude": 121.456 },
    "brands": ["vintage"],
    "style": ["vintage"],
    "isOpen": true
  },
  {
    "id": "sh-020",
    "name": "Rouge room",
    "address": "上海市徐汇区延庆路与华亭路交叉口东北80米",
    "city": "上海",
    "country": "中国",
    "coordinates": { "latitude": 31.216, "longitude": 121.447 },
    "brands": ["vintage", "设计师品牌"],
    "style": ["vintage", "设计师品牌"],
    "isOpen": true,
    "phone": ["18967875780"],
    "hours": "13:00-20:00"
  },
  {
    "id": "sh-021",
    "name": "Septieme",
    "address": "上海市徐汇区武康路129-1号",
    "city": "上海",
    "country": "中国",
    "coordinates": { "latitude": 31.2125, "longitude": 121.4395 },
    "brands": ["设计师品牌"],
    "style": ["先锋"],
    "isOpen": true,
    "phone": ["021-64411160"],
    "hours": "11:00-19:00"
  },
  {
    "id": "sh-022",
    "name": "Akvo55",
    "address": "上海市静安区南京西路788号",
    "city": "上海",
    "country": "中国",
    "coordinates": { "latitude": 31.232, "longitude": 121.46 },
    "brands": ["issey miyake", "yohji", "comme des garcons"],
    "style": ["先锋"],
    "isOpen": false,
    "hours": "需预约"
  },
  {
    "id": "sh-023",
    "name": "Doe",
    "address": "上海市静安区铜仁路76-78号",
    "city": "上海",
    "country": "中国",
    "coordinates": { "latitude": 31.234, "longitude": 121.457 },
    "brands": ["潮牌"],
    "style": ["潮牌", "快时尚"],
    "isOpen": true,
    "phone": ["021-61808378"],
    "hours": "09:30-22:00"
  },
  {
    "id": "sh-024",
    "name": "AMBELIE GALLERY",
    "address": "徐汇区康平路21号",
    "city": "上海",
    "country": "中国",
    "coordinates": { "latitude": 31.209, "longitude": 121.441 },
    "brands": ["设计师品牌", "中古", "archive"],
    "style": ["先锋"],
    "isOpen": true,
    "phone": ["15911938256"],
    "hours": "10:00-20:00"
  },
  {
    "id": "sh-025",
    "name": "Zoo vintage",
    "address": "上海市",
    "city": "上海",
    "country": "中国",
    "coordinates": { "latitude": 31.2304, "longitude": 121.4737 },
    "brands": ["Margiela", "cdg", "yohji", "IsseyMiyake"],
    "style": ["先锋", "vintage", "archive"],
    "isOpen": false,
    "hours": "需预约",
    "description": "小红书 ZOOvtg"
  },
  {
    "id": "sh-026",
    "name": "LOCUS",
    "address": "静安区常熟路100弄宝立大厦11号405室",
    "city": "上海",
    "country": "中国",
    "coordinates": { "latitude": 31.2255, "longitude": 121.4455 },
    "brands": ["ROY STUDIO", "rick owens", "bbs"],
    "style": ["工匠", "暗黑", "先锋"],
    "isOpen": true,
    "phone": ["13816500795"],
    "hours": "10:30-21:00"
  },
  {
    "id": "sh-027",
    "name": "liquid vintage",
    "address": "徐汇区永康路149号",
    "city": "上海",
    "country": "中国",
    "coordinates": { "latitude": 31.2108, "longitude": 121.4565 },
    "brands": [
      "If six was nine",
      "L.G.B.",
      "Kmrii",
      "14th addiction",
      "Alice auaa",
      "Roen",
      "CATORCE",
      "Share Spirit",
      "Gunda",
      "Jean Paul Gaultier"
    ],
    "style": ["先锋", "视觉系", "vintage", "archive"],
    "isOpen": true,
    "phone": ["18964842934"],
    "hours": "13:00-21:00"
  },
  {
    "id": "sh-028",
    "name": "Via NDN",
    "address": "上海市长宁区新华路街道江苏路878号海文贵冠商务中心一层商铺",
    "city": "上海",
    "country": "中国",
    "coordinates": { "latitude": 31.22, "longitude": 121.432 },
    "brands": ["设计师品牌"],
    "style": ["工匠"],
    "isOpen": true,
    "phone": ["15316511046"],
    "hours": "10:00-19:00"
  },
  {
    "id": "sh-029",
    "name": "TheOrientGoods",
    "address": "上海市黄浦区四川中路33号",
    "city": "上海",
    "country": "中国",
    "coordinates": { "latitude": 31.238, "longitude": 121.485 },
    "brands": ["设计师品牌"],
    "style": ["工匠", "先锋"],
    "isOpen": false,
    "hours": "13:00-19:00（需预约）"
  },
  {
    "id": "sh-030",
    "name": "Cosmo Retro",
    "address": "上海市静安区富民路247号",
    "city": "上海",
    "country": "中国",
    "coordinates": { "latitude": 31.2265, "longitude": 121.4525 },
    "brands": ["vintage"],
    "style": ["美式复古", "vintage"],
    "isOpen": true,
    "phone": ["15120079726", "17317863083"],
    "hours": "12:30-20:30"
  },
  {
    "id": "sh-031",
    "name": "UNiTN",
    "address": "上海市黄浦区圆明园路185号兰心大楼UNiTN B1-2F",
    "city": "上海",
    "country": "中国",
    "coordinates": { "latitude": 31.242, "longitude": 121.487 },
    "brands": ["设计师品牌"],
    "style": ["设计师品牌集合店"],
    "isOpen": true,
    "hours": "13:00-19:00"
  },
  {
    "id": "sh-032",
    "name": "CONZ",
    "address": "上海市静安区富民路271号保尔花园F座",
    "city": "上海",
    "country": "中国",
    "coordinates": { "latitude": 31.2262, "longitude": 121.4518 },
    "brands": ["日本设计师品牌"],
    "style": ["设计师品牌集合店", "日本品牌集合店"],
    "isOpen": true,
    "hours": "12:00-20:00"
  },
  {
    "id": "sh-033",
    "name": "DigitalUtopiaSHOP",
    "address": "上海市徐汇区复兴中路1363弄1号楼104室",
    "city": "上海",
    "country": "中国",
    "coordinates": { "latitude": 31.2185, "longitude": 121.456 },
    "brands": ["设计师品牌", "archive"],
    "style": ["暗黑", "先锋", "哥特"],
    "isOpen": true,
    "phone": ["13508489113"],
    "hours": "14:00-22:00"
  },
  {
    "id": "sh-034",
    "name": "uma wang",
    "address": "徐汇区复兴西路299弄1号 上海复兴西里F1层",
    "city": "上海",
    "country": "中国",
    "coordinates": { "latitude": 31.211, "longitude": 121.435 },
    "brands": ["uma wang"],
    "style": ["暗黑", "先锋", "工匠"],
    "isOpen": true,
    "hours": "11:00-21:00",
    "description": "另有新天地时尚二期及前滩太古里分店"
  },
  {
    "id": "sh-035",
    "name": "matchaqiu 工作室",
    "address": "上海市",
    "city": "上海",
    "country": "中国",
    "coordinates": { "latitude": 31.2304, "longitude": 121.4737 },
    "brands": ["设计师品牌"],
    "style": ["亚文化", "archive", "设计师品牌"],
    "isOpen": false,
    "hours": "需预约",
    "description": "小红书 matchaqiu"
  },
  {
    "id": "sh-036",
    "name": "Halus",
    "address": "徐汇区建国西路345弄",
    "city": "上海",
    "country": "中国",
    "coordinates": { "latitude": 31.207, "longitude": 121.449 },
    "brands": ["设计师品牌"],
    "style": ["设计师品牌集合店"],
    "isOpen": true,
    "phone": ["13321838761"],
    "hours": "11:00-20:00"
  },
  {
    "id": "sh-037",
    "name": "22 COLLECTION",
    "address": "黄浦区建国中路143号",
    "city": "上海",
    "country": "中国",
    "coordinates": { "latitude": 31.215, "longitude": 121.47 },
    "brands": ["设计师品牌"],
    "style": ["设计师品牌集合店"],
    "isOpen": true,
    "phone": ["17384488361"],
    "hours": "11:00-21:00"
  },
  {
    "id": "sh-038",
    "name": "theSEC",
    "address": "徐汇区永嘉路498号",
    "city": "上海",
    "country": "中国",
    "coordinates": { "latitude": 31.2095, "longitude": 121.454 },
    "brands": ["cdg", "yohji", "设计师品牌"],
    "style": ["vintage", "先锋", "设计师品牌"],
    "isOpen": true
  },
  {
    "id": "sh-039",
    "name": "Swingvintage",
    "address": "徐汇区永康路121号",
    "city": "上海",
    "country": "中国",
    "coordinates": { "latitude": 31.2112, "longitude": 121.4572 },
    "brands": ["vintage"],
    "style": ["vintage"],
    "isOpen": true,
    "phone": ["13438227352"],
    "hours": "12:00-21:00"
  },
  {
    "id": "sh-040",
    "name": "王富贵中古店",
    "address": "静安区华山路351弄14号101",
    "city": "上海",
    "country": "中国",
    "coordinates": { "latitude": 31.222, "longitude": 121.443 },
    "brands": ["cdg", "IsseyMiyake", "yohji"],
    "style": ["archive", "中古品牌集合店", "中古奢侈品包包"],
    "isOpen": true,
    "phone": ["18221296176"],
    "hours": "12:00-20:00"
  },
  {
    "id": "sh-041",
    "name": "onegallerycave",
    "address": "静安区富民路255弄1-7号富民路255弄小区",
    "city": "上海",
    "country": "中国",
    "coordinates": { "latitude": 31.227, "longitude": 121.4515 },
    "brands": ["chromehearts", "ccp", "yohji"],
    "style": ["暗黑", "先锋"],
    "isOpen": true,
    "hours": "12:00-22:00"
  },
  {
    "id": "sh-042",
    "name": "棉花田",
    "address": "静安区长乐路564号",
    "city": "上海",
    "country": "中国",
    "coordinates": { "latitude": 31.2235, "longitude": 121.451 },
    "brands": ["Rundholz", "SUPPAN", "HORISAKI"],
    "style": ["工匠", "先锋"],
    "isOpen": true,
    "phone": ["021-54035103", "18802105559"],
    "hours": "10:00-20:00"
  },
  {
    "id": "sh-043",
    "name": "PANNING",
    "address": "静安区福建北路100号上海苏河湾万象天地东里LG162",
    "city": "上海",
    "country": "中国",
    "coordinates": { "latitude": 31.245, "longitude": 121.478 },
    "brands": ["设计师品牌"],
    "style": ["设计师品牌集合店"],
    "isOpen": true
  },
  {
    "id": "sh-044",
    "name": "LMDS世界",
    "address": "徐汇区桃江路1号",
    "city": "上海",
    "country": "中国",
    "coordinates": { "latitude": 31.206, "longitude": 121.442 },
    "brands": ["设计师品牌"],
    "style": ["设计师品牌集合店"],
    "isOpen": true,
    "hours": "11:00-21:00"
  },
  {
    "id": "sh-045",
    "name": "ALTER",
    "address": "黄浦区新天地时尚二期马当路245号L116商铺",
    "city": "上海",
    "country": "中国",
    "coordinates": { "latitude": 31.22, "longitude": 121.475 },
    "brands": ["设计师品牌"],
    "style": ["设计师品牌集合店"],
    "isOpen": true,
    "phone": ["13524228781"],
    "hours": "10:00-22:00"
  },
  {
    "id": "hz-001",
    "name": "B1OCK Concept Store",
    "address": "杭州市天目山路398号天目里11号楼",
    "city": "杭州",
    "country": "中国",
    "coordinates": { "latitude": 30.278, "longitude": 120.118 },
    "brands": ["Rick Owens", "martinmargiela"],
    "style": ["暗黑", "先锋"],
    "isOpen": true,
    "phone": ["18651825781"],
    "hours": "11:00-21:15"
  },
  {
    "id": "hz-002",
    "name": "Mirage25 中山店",
    "address": "杭州市中山中路266号",
    "city": "杭州",
    "country": "中国",
    "coordinates": { "latitude": 30.255, "longitude": 120.165 },
    "brands": ["设计师品牌"],
    "style": ["先锋", "工匠"],
    "isOpen": true,
    "phone": ["17816766171"],
    "hours": "11:00-21:00"
  },
  {
    "id": "hz-003",
    "name": "Mirage25 东信店",
    "address": "杭州市留和路139号东信和创园23幢",
    "city": "杭州",
    "country": "中国",
    "coordinates": { "latitude": 30.232, "longitude": 120.085 },
    "brands": ["设计师品牌"],
    "style": ["先锋", "工匠"],
    "isOpen": true,
    "phone": ["17816766171"],
    "hours": "11:00-19:00"
  },
  {
    "id": "hz-004",
    "name": "LOWLIGHT",
    "address": "杭州市萧杭路517号五七公社文化创意园22幢",
    "city": "杭州",
    "country": "中国",
    "coordinates": { "latitude": 30.228, "longitude": 120.205 },
    "brands": ["Marc Le Bihan", "Guidi", "OUDE WAAG", "Soft Mountains", "YAYI"],
    "style": ["先锋", "工匠"],
    "isOpen": true,
    "phone": ["18268040926"],
    "hours": "10:00-22:00"
  },
  {
    "id": "hz-005",
    "name": "廓尔",
    "address": "杭州市东信和创园66栋旁巷子里小房子",
    "city": "杭州",
    "country": "中国",
    "coordinates": { "latitude": 30.2325, "longitude": 120.0855 },
    "brands": ["Daniela gregis", "Gasa", "Kuo'er"],
    "style": ["工匠"],
    "isOpen": true,
    "phone": ["13861484324"],
    "hours": "10:00-18:00"
  },
  {
    "id": "hz-006",
    "name": "Nude CLOTHING",
    "address": "杭州市",
    "city": "杭州",
    "country": "中国",
    "coordinates": { "latitude": 30.2741, "longitude": 120.1551 },
    "brands": [
      "YohjiYamamoto",
      "commedesgarçons",
      "undercover",
      "rickowens",
      "martinmargiela"
    ],
    "style": ["先锋", "Archive"],
    "isOpen": false,
    "hours": "需预约",
    "description": "小红书 Nude CLOTHING"
  },
  {
    "id": "hz-007",
    "name": "LOCAT ATTITUDE",
    "address": "杭州武林路399号",
    "city": "杭州",
    "country": "中国",
    "coordinates": { "latitude": 30.268, "longitude": 120.162 },
    "brands": ["时尚潮流品牌"],
    "style": ["品牌集合店"],
    "isOpen": true,
    "phone": ["13185085517"],
    "hours": "11:00-23:00"
  },
  {
    "id": "hz-008",
    "name": "3 point 55",
    "address": "杭州实体武林公寓2栋3单元302（楼下按门铃）",
    "city": "杭州",
    "country": "中国",
    "coordinates": { "latitude": 30.27, "longitude": 120.161 },
    "brands": ["Vivienne", "undercover", "Prada", "yohji", "cdg"],
    "style": ["vintage", "archive"],
    "isOpen": true,
    "hours": "周二至周日 14:00-21:00"
  },
  {
    "id": "hz-009",
    "name": "Eudemenia",
    "address": "杭州滨江长河历史文化街区长江中路52号园区内",
    "city": "杭州",
    "country": "中国",
    "coordinates": { "latitude": 30.205, "longitude": 120.185 },
    "brands": ["设计师品牌"],
    "style": ["设计师品牌集合店"],
    "isOpen": true,
    "phone": ["18258378908", "13276259679"],
    "hours": "10:00-21:00",
    "description": "小红书 Eudemenia"
  },
  {
    "id": "hz-010",
    "name": "SEEKER NARRATOR",
    "address": "杭州市拱墅区小河路488号运河天地13号楼101室",
    "city": "杭州",
    "country": "中国",
    "coordinates": { "latitude": 30.305, "longitude": 120.128 },
    "brands": ["设计师品牌"],
    "style": ["工匠"],
    "isOpen": true,
    "phone": ["18858134603"],
    "hours": "12:00-20:00"
  },
  {
    "id": "hz-011",
    "name": "古物杂货铺",
    "address": "杭州市萧山区（具体地址需预约了解）",
    "city": "杭州",
    "country": "中国",
    "coordinates": { "latitude": 30.185, "longitude": 120.265 },
    "brands": ["Ziggy Chen", "Uma Wang", "Mutedance", "Elena Dawson"],
    "style": ["工匠"],
    "isOpen": false,
    "hours": "需提前一天预约",
    "description": "小红书 Dissolve88"
  },
  {
    "id": "hz-012",
    "name": "Torties 湖滨银泰店",
    "address": "杭州市上城区湖滨银泰in77-C2区1F-L1020",
    "city": "杭州",
    "country": "中国",
    "coordinates": { "latitude": 30.248, "longitude": 120.168 },
    "brands": ["品牌集合店"],
    "style": ["日潮"],
    "isOpen": true,
    "hours": "10:00-22:00"
  },
  {
    "id": "hz-013",
    "name": "Torties 延安路店",
    "address": "杭州市拱墅区延安路609号1F01-1",
    "city": "杭州",
    "country": "中国",
    "coordinates": { "latitude": 30.272, "longitude": 120.164 },
    "brands": ["品牌集合店"],
    "style": ["日潮"],
    "isOpen": true,
    "hours": "10:00-22:00"
  },
  {
    "id": "hz-014",
    "name": "三小时vintage",
    "address": "杭州市钱塘区万亚金沙湖一号3幢807",
    "city": "杭州",
    "country": "中国",
    "coordinates": { "latitude": 30.315, "longitude": 120.348 },
    "brands": ["fendi", "Lanvin", "Burberry", "Dior"],
    "style": ["奢牌vintage", "archive"],
    "isOpen": true,
    "phone": ["18858969377"],
    "hours": "13:30-21:00"
  },
  {
    "id": "hz-015",
    "name": "Root",
    "address": "杭州市上城区南星街道凤凰山脚路凤山拾遗创意园4幢105",
    "city": "杭州",
    "country": "中国",
    "coordinates": { "latitude": 30.235, "longitude": 120.172 },
    "brands": [],
    "style": ["先锋", "暗黑"],
    "isOpen": true,
    "phone": ["13095757779"],
    "hours": "12:00-20:00"
  },
  {
    "id": "hz-016",
    "name": "G_rove",
    "address": "杭州市上城区凤山拾遗园1-104",
    "city": "杭州",
    "country": "中国",
    "coordinates": { "latitude": 30.2355, "longitude": 120.1725 },
    "brands": ["设计师品牌"],
    "style": ["暗黑", "哥特"],
    "isOpen": true,
    "hours": "11:11-22:00"
  },
  {
    "id": "hz-017",
    "name": "bycookieh",
    "address": "杭州市萧山区平澜路541号杭州亚奥万象天地L1层",
    "city": "杭州",
    "country": "中国",
    "coordinates": { "latitude": 30.218, "longitude": 120.235 },
    "brands": ["设计师品牌"],
    "style": ["暗黑", "先锋"],
    "isOpen": true
  },
  {
    "id": "hz-018",
    "name": "rickowens",
    "address": "杭州市拱墅区延安路385号杭州嘉里中心L1层",
    "city": "杭州",
    "country": "中国",
    "coordinates": { "latitude": 30.265, "longitude": 120.163 },
    "brands": ["rickowens"],
    "style": ["暗黑", "先锋"],
    "isOpen": true
  },
  {
    "id": "es-001",
    "name": "SVD Sivasdescalzo",
    "address": "Bailén 18 08010, Barcelona",
    "city": "Barcelona",
    "country": "西班牙",
    "coordinates": { "latitude": 41.3939, "longitude": 2.1729 },
    "brands": ["设计师品牌", "潮牌"],
    "style": ["潮流", "设计师品牌"],
    "isOpen": true
  },
  {
    "id": "es-002",
    "name": "SVD Sivasdescalzo",
    "address": "Churruca, 5 28004, Madrid",
    "city": "Madrid",
    "country": "西班牙",
    "coordinates": { "latitude": 40.4255, "longitude": -3.7021 },
    "brands": ["设计师品牌", "潮牌"],
    "style": ["潮流", "设计师品牌"],
    "isOpen": true
  },
  {
    "id": "es-003",
    "name": "Aleluya",
    "address": "Carrer d'Elisabets, 2 08001, Barcelona",
    "city": "Barcelona",
    "country": "西班牙",
    "coordinates": { "latitude": 41.3828, "longitude": 2.1701 },
    "brands": ["设计师品牌"],
    "style": ["先锋"],
    "isOpen": true
  },
  {
    "id": "de-001",
    "name": "Leon Emanuel Blanck Showroom",
    "address": "Herzbergstraße 55 10365, Berlin",
    "city": "Berlin",
    "country": "德国",
    "coordinates": { "latitude": 52.5165, "longitude": 13.5045 },
    "brands": ["Leon Emanuel Blanck"],
    "style": ["先锋", "工匠"],
    "isOpen": true
  },
  {
    "id": "de-002",
    "name": "Harveys",
    "address": "Kurfürstendamm 56 10707, Berlin",
    "city": "Berlin",
    "country": "德国",
    "coordinates": { "latitude": 52.5014, "longitude": 13.3098 },
    "brands": ["设计师品牌"],
    "style": ["设计师品牌集合店"],
    "isOpen": true
  },
  {
    "id": "de-003",
    "name": "Nag Nag Outlet Store",
    "address": "Potsdamer Str. 77 10785, Berlin",
    "city": "Berlin",
    "country": "德国",
    "coordinates": { "latitude": 52.5031, "longitude": 13.3674 },
    "brands": ["设计师品牌"],
    "style": ["先锋"],
    "isOpen": true
  },
  {
    "id": "de-004",
    "name": "Darklands",
    "address": "Potsdamer Straße 81a Mercator Höfe, Haus J 10785, Berlin",
    "city": "Berlin",
    "country": "德国",
    "coordinates": { "latitude": 52.5028, "longitude": 13.3671 },
    "brands": ["Rick Owens", "CCP", "M.A+", "Layer-0", "Guidi"],
    "style": ["暗黑", "先锋", "工匠"],
    "isOpen": true
  },
  {
    "id": "de-005",
    "name": "HNTA",
    "address": "Torstraße 178, 10115, Berlin",
    "city": "Berlin",
    "country": "德国",
    "coordinates": { "latitude": 52.5297, "longitude": 13.3978 },
    "brands": ["设计师品牌"],
    "style": ["先锋"],
    "isOpen": true
  },
  {
    "id": "de-006",
    "name": "Gate194",
    "address": "Köpenicker Str. 194 10997, Berlin",
    "city": "Berlin",
    "country": "德国",
    "coordinates": { "latitude": 52.5019, "longitude": 13.4441 },
    "brands": ["设计师品牌"],
    "style": ["先锋", "暗黑"],
    "isOpen": true
  },
  {
    "id": "de-007",
    "name": "darklands-x",
    "address": "Potsdamer Str. 79 (Mercator Höfe) Haus A / Building A 10785, Berlin",
    "city": "Berlin",
    "country": "德国",
    "coordinates": { "latitude": 52.5029, "longitude": 13.3672 },
    "brands": ["Rick Owens", "CCP", "M.A+"],
    "style": ["暗黑", "先锋"],
    "isOpen": true
  },
  {
    "id": "de-008",
    "name": "Orimono",
    "address": "Joachimstr. 5 10119, Berlin",
    "city": "Berlin",
    "country": "德国",
    "coordinates": { "latitude": 52.5288, "longitude": 13.4009 },
    "brands": ["日本品牌"],
    "style": ["日系", "工匠"],
    "isOpen": true
  },
  {
    "id": "uk-001",
    "name": "Autograph",
    "address": "15-17 Ethel St B2 4BG, Birmingham",
    "city": "Birmingham",
    "country": "英国",
    "coordinates": { "latitude": 52.4776, "longitude": -1.8982 },
    "brands": ["设计师品牌"],
    "style": ["设计师品牌集合店"],
    "isOpen": true
  },
  {
    "id": "ro-001",
    "name": "Mus Concept",
    "address": "Aleea Alexandru 9, 011823, Bucharest",
    "city": "Bucharest",
    "country": "罗马尼亚",
    "coordinates": { "latitude": 44.4486, "longitude": 26.0853 },
    "brands": ["设计师品牌"],
    "style": ["先锋"],
    "isOpen": true
  },
  {
    "id": "za-001",
    "name": "VRVO",
    "address": "VRVO Studio at The Woodstock Foundry, 150-170 Albert Road 7925, Cape Town",
    "city": "Cape Town",
    "country": "南非",
    "coordinates": { "latitude": -33.9321, "longitude": 18.4449 },
    "brands": ["设计师品牌"],
    "style": ["先锋"],
    "isOpen": true
  },
  {
    "id": "za-002",
    "name": "VRVO",
    "address": "Woodstock Jewellers - Shop 4, Salt Circle Arcade, 374 Albert Rd, Cape Town",
    "city": "Cape Town",
    "country": "南非",
    "coordinates": { "latitude": -33.9325, "longitude": 18.4452 },
    "brands": ["设计师品牌"],
    "style": ["先锋"],
    "isOpen": true
  },
  {
    "id": "it-001",
    "name": "Effe7 Boutique",
    "address": "Via S. Francesco, 5 41012, Carpi",
    "city": "Carpi",
    "country": "意大利",
    "coordinates": { "latitude": 44.7836, "longitude": 10.8847 },
    "brands": ["设计师品牌"],
    "style": ["设计师品牌集合店"],
    "isOpen": true
  },
  {
    "id": "us-001",
    "name": "Gallery Aesthete",
    "address": "1751 W Division St, 60622, Chicago",
    "city": "Chicago",
    "country": "美国",
    "coordinates": { "latitude": 41.9032, "longitude": -87.6735 },
    "brands": ["Rick Owens", "Boris Bidjan Saberi", "M.A+"],
    "style": ["暗黑", "先锋", "工匠"],
    "isOpen": true
  },
  {
    "id": "ae-001",
    "name": "Closet Case Dubai",
    "address": "The Dubai Mall, second floor, fashion avenue, sf268 Financial Center Street, Dubai",
    "city": "Dubai",
    "country": "阿联酋",
    "coordinates": { "latitude": 25.1972, "longitude": 55.2744 },
    "brands": ["设计师品牌"],
    "style": ["设计师品牌集合店"],
    "isOpen": true
  },
  {
    "id": "de-009",
    "name": "Frida",
    "address": "Bleidenstrasse 11 60311, Frankfurt",
    "city": "Frankfurt",
    "country": "德国",
    "coordinates": { "latitude": 50.1117, "longitude": 8.6815 },
    "brands": ["设计师品牌"],
    "style": ["先锋"],
    "isOpen": true
  },
  {
    "id": "se-001",
    "name": "W19",
    "address": "Karl Gustavsgatan 15 41125, Gothenburg",
    "city": "Gothenburg",
    "country": "瑞典",
    "coordinates": { "latitude": 57.6949, "longitude": 11.9619 },
    "brands": ["设计师品牌"],
    "style": ["先锋"],
    "isOpen": true
  },
  {
    "id": "at-001",
    "name": "Pilatus Fashion",
    "address": "Stempfergasse 4 & 5 8010, Graz",
    "city": "Graz",
    "country": "奥地利",
    "coordinates": { "latitude": 47.0713, "longitude": 15.4386 },
    "brands": ["设计师品牌"],
    "style": ["先锋"],
    "isOpen": true
  },
  {
    "id": "vn-001",
    "name": "The Dark Gallery",
    "address": "4 Trieu Viet Vuong, Hai Ba Trung, Ha Noi",
    "city": "Ha Noi",
    "country": "越南",
    "coordinates": { "latitude": 21.0134, "longitude": 105.8525 },
    "brands": ["设计师品牌"],
    "style": ["暗黑", "先锋"],
    "isOpen": true
  },
  {
    "id": "de-010",
    "name": "Werkhaus Fashion",
    "address": "Große Elbstraße 146 22767, Hamburg",
    "city": "Hamburg",
    "country": "德国",
    "coordinates": { "latitude": 53.5449, "longitude": 9.9361 },
    "brands": ["设计师品牌"],
    "style": ["先锋"],
    "isOpen": true
  },
  {
    "id": "fi-001",
    "name": "Seven",
    "address": "Eerikinkatu 35 00180, Helsinki",
    "city": "Helsinki",
    "country": "芬兰",
    "coordinates": { "latitude": 60.1665, "longitude": 24.9321 },
    "brands": ["设计师品牌"],
    "style": ["先锋"],
    "isOpen": true
  },
  {
    "id": "es-004",
    "name": "SPRMRKT AT WOW",
    "address": "Caretera de San Rafael a Santa Gertrudis km.4 07814, Ibiza",
    "city": "Ibiza",
    "country": "西班牙",
    "coordinates": { "latitude": 39.0086, "longitude": 1.4339 },
    "brands": ["设计师品牌"],
    "style": ["设计师品牌集合店"],
    "isOpen": true
  },
  {
    "id": "es-005",
    "name": "Geisha Atelier",
    "address": "Carrer de la Santa Creu, 17 07800, Ibiza",
    "city": "Ibiza",
    "country": "西班牙",
    "coordinates": { "latitude": 38.9088, "longitude": 1.4328 },
    "brands": ["设计师品牌"],
    "style": ["先锋"],
    "isOpen": true
  },
  {
    "id": "es-006",
    "name": "Antonioli Ibiza",
    "address": "Carrer de Cas Dominguets, 17c 07800, Ibiza",
    "city": "Ibiza",
    "country": "西班牙",
    "coordinates": { "latitude": 38.9085, "longitude": 1.4325 },
    "brands": ["Rick Owens", "Comme des Garçons", "Maison Margiela"],
    "style": ["先锋", "暗黑"],
    "isOpen": true
  },
  {
    "id": "es-007",
    "name": "reVOLVER Ibiza",
    "address": "Carrer del Bisbe Azara, 1 07800, Ibiza",
    "city": "Ibiza",
    "country": "西班牙",
    "coordinates": { "latitude": 38.9082, "longitude": 1.4321 },
    "brands": ["设计师品牌"],
    "style": ["先锋"],
    "isOpen": true
  },
  {
    "id": "es-008",
    "name": "Code Ibiza Finca",
    "address": "Carretera de Ibiza a Santa Eulària Km 2,5 07819, Ibiza",
    "city": "Ibiza",
    "country": "西班牙",
    "coordinates": { "latitude": 38.9245, "longitude": 1.4456 },
    "brands": ["设计师品牌"],
    "style": ["先锋"],
    "isOpen": true
  },
  {
    "id": "es-009",
    "name": "Ibiza Code Figuera D'Indi",
    "address": "Calle de la Cruz 21 07800, Ibiza",
    "city": "Ibiza",
    "country": "西班牙",
    "coordinates": { "latitude": 38.9078, "longitude": 1.4318 },
    "brands": ["设计师品牌"],
    "style": ["先锋"],
    "isOpen": true
  },
  {
    "id": "jp-001",
    "name": "Shelter II",
    "address": "Wall Avenue 1f, 1 Chome-7-17 Yamamotodori, Chuo Ward 650-0003, Kobe",
    "city": "Kobe",
    "country": "日本",
    "coordinates": { "latitude": 34.6951, "longitude": 135.1901 },
    "brands": ["设计师品牌"],
    "style": ["先锋", "暗黑"],
    "isOpen": true
  },
  {
    "id": "jp-002",
    "name": "Logy",
    "address": "#DECO3 1F Gokomachi square, 416-5 604-8044, Kyoto",
    "city": "Kyoto",
    "country": "日本",
    "coordinates": { "latitude": 35.0052, "longitude": 135.7651 },
    "brands": ["设计师品牌"],
    "style": ["先锋", "工匠"],
    "isOpen": true
  },
  {
    "id": "uk-002",
    "name": "The Allotment Store",
    "address": "Central Arcade LS1 6DX, Leeds",
    "city": "Leeds",
    "country": "英国",
    "coordinates": { "latitude": 53.7963, "longitude": -1.5437 },
    "brands": ["设计师品牌"],
    "style": ["先锋"],
    "isOpen": true
  },
  {
    "id": "uk-003",
    "name": "The Business Fashion",
    "address": "360 Welford Rd LE2 6EJ, Leicester",
    "city": "Leicester",
    "country": "英国",
    "coordinates": { "latitude": 52.6151, "longitude": -1.1209 },
    "brands": ["设计师品牌"],
    "style": ["设计师品牌集合店"],
    "isOpen": true
  },
  {
    "id": "de-011",
    "name": "MONO-KROM GALLERY",
    "address": "Berliner Str. 1 04105, Leipzig",
    "city": "Leipzig",
    "country": "德国",
    "coordinates": { "latitude": 51.3456, "longitude": 12.3728 },
    "brands": ["设计师品牌"],
    "style": ["先锋", "暗黑"],
    "isOpen": true
  },
  {
    "id": "uk-004",
    "name": "UJNG",
    "address": "77 Redchurch street, Shoreditch E2 7DJ, London",
    "city": "London",
    "country": "英国",
    "coordinates": { "latitude": 51.5249, "longitude": -0.0739 },
    "brands": ["设计师品牌"],
    "style": ["先锋"],
    "isOpen": true
  },
  {
    "id": "uk-005",
    "name": "Vertice",
    "address": "31 Smith's Ct W1D 7DP, London",
    "city": "London",
    "country": "英国",
    "coordinates": { "latitude": 51.5137, "longitude": -0.1319 },
    "brands": ["设计师品牌"],
    "style": ["先锋"],
    "isOpen": true
  },
  {
    "id": "uk-006",
    "name": "LAYERS",
    "address": "17 Albemarle Street W1S 4HP, London",
    "city": "London",
    "country": "英国",
    "coordinates": { "latitude": 51.5088, "longitude": -0.1417 },
    "brands": ["设计师品牌"],
    "style": ["先锋", "暗黑"],
    "isOpen": true
  },
  {
    "id": "uk-007",
    "name": "The Library 1994",
    "address": "268 Brompton Rd SW3 2AS, London",
    "city": "London",
    "country": "英国",
    "coordinates": { "latitude": 51.4929, "longitude": -0.1742 },
    "brands": ["设计师品牌"],
    "style": ["设计师品牌集合店"],
    "isOpen": true
  },
  {
    "id": "uk-008",
    "name": "Closet Case Soho",
    "address": "47 Brewer St, Soho W1F 9UF, London",
    "city": "London",
    "country": "英国",
    "coordinates": { "latitude": 51.5122, "longitude": -0.1346 },
    "brands": ["设计师品牌"],
    "style": ["设计师品牌集合店"],
    "isOpen": true
  },
  {
    "id": "uk-009",
    "name": "The Lab Store",
    "address": "9-10 Newman St, Fitzrovia W1T 1PB, London",
    "city": "London",
    "country": "英国",
    "coordinates": { "latitude": 51.5178, "longitude": -0.1381 },
    "brands": ["设计师品牌"],
    "style": ["先锋"],
    "isOpen": true
  },
  {
    "id": "us-002",
    "name": "H. Lorenzo",
    "address": "8700 W. Sunset Blvd 90069 West Hollywood, Los Angeles",
    "city": "Los Angeles",
    "country": "美国",
    "coordinates": { "latitude": 34.0907, "longitude": -118.3825 },
    "brands": ["Rick Owens", "Comme des Garçons", "Yohji Yamamoto"],
    "style": ["先锋", "暗黑"],
    "isOpen": true
  },
  {
    "id": "ch-001",
    "name": "Antonioli Lugano",
    "address": "Via Nassa 29, Lugano",
    "city": "Lugano",
    "country": "瑞士",
    "coordinates": { "latitude": 46.0037, "longitude": 8.9511 },
    "brands": ["Rick Owens", "Comme des Garçons", "Maison Margiela"],
    "style": ["先锋", "暗黑"],
    "isOpen": true
  },
  {
    "id": "es-010",
    "name": "SUUS",
    "address": "Calle Justiniano, 14 28004, Madrid",
    "city": "Madrid",
    "country": "西班牙",
    "coordinates": { "latitude": 40.4312, "longitude": -3.7021 },
    "brands": ["设计师品牌"],
    "style": ["先锋"],
    "isOpen": true
  },
  {
    "id": "es-011",
    "name": "Position by Kling",
    "address": "Calle Constitución 3 07001, Mallorca",
    "city": "Mallorca",
    "country": "西班牙",
    "coordinates": { "latitude": 39.5696, "longitude": 2.6502 },
    "brands": ["设计师品牌"],
    "style": ["先锋"],
    "isOpen": true
  },
  {
    "id": "it-002",
    "name": "Antonioli Milano",
    "address": "Via P. Paoli, 1, Milan",
    "city": "Milan",
    "country": "意大利",
    "coordinates": { "latitude": 45.4474, "longitude": 9.1689 },
    "brands": ["Rick Owens", "Comme des Garçons", "Maison Margiela", "Guidi"],
    "style": ["先锋", "暗黑", "工匠"],
    "isOpen": true
  },
  {
    "id": "it-003",
    "name": "Daad Dantone",
    "address": "Via Santo Spirito, 24A 20121, Milan",
    "city": "Milan",
    "country": "意大利",
    "coordinates": { "latitude": 45.4695, "longitude": 9.1898 },
    "brands": ["设计师品牌"],
    "style": ["先锋", "工匠"],
    "isOpen": true
  },
  {
    "id": "ca-001",
    "name": "SSENSE",
    "address": "418 Rue Saint-Sulpice QC H2Y 2V5, Montréal",
    "city": "Montréal",
    "country": "加拿大",
    "coordinates": { "latitude": 45.5044, "longitude": -73.5559 },
    "brands": [
      "Rick Owens",
      "Comme des Garçons",
      "Maison Margiela",
      "Balenciaga"
    ],
    "style": ["先锋", "设计师品牌集合店"],
    "isOpen": true
  },
  {
    "id": "it-004",
    "name": "Revolution Concept Store",
    "address": "Via Vittorio Emanuele II, n. 49, Monza",
    "city": "Monza",
    "country": "意大利",
    "coordinates": { "latitude": 45.5845, "longitude": 9.2744 },
    "brands": ["设计师品牌"],
    "style": ["先锋"],
    "isOpen": true
  },
  {
    "id": "ru-001",
    "name": "DAD",
    "address": "Sadovaya-Kudrinskaya Ulitsa, 14/16, 123001, Moscow",
    "city": "Moscow",
    "country": "俄罗斯",
    "coordinates": { "latitude": 55.7641, "longitude": 37.5852 },
    "brands": ["设计师品牌"],
    "style": ["先锋"],
    "isOpen": true
  },
  {
    "id": "ru-002",
    "name": "Project 314",
    "address": "32/3 Trubnaya Street, Moscow",
    "city": "Moscow",
    "country": "俄罗斯",
    "coordinates": { "latitude": 55.7676, "longitude": 37.6231 },
    "brands": ["设计师品牌"],
    "style": ["先锋"],
    "isOpen": true
  },
  {
    "id": "ru-003",
    "name": "SV Moscow",
    "address": "Malaya Molchanovka, 6 121069, Moscow",
    "city": "Moscow",
    "country": "俄罗斯",
    "coordinates": { "latitude": 55.7529, "longitude": 37.5925 },
    "brands": ["Rick Owens", "Comme des Garçons"],
    "style": ["先锋", "暗黑"],
    "isOpen": true
  },
  {
    "id": "de-012",
    "name": "ster/eo muc",
    "address": "Odeonsplatz 12 80539, Munich",
    "city": "Munich",
    "country": "德国",
    "coordinates": { "latitude": 48.1426, "longitude": 11.5774 },
    "brands": ["设计师品牌"],
    "style": ["先锋"],
    "isOpen": true
  },
  {
    "id": "de-013",
    "name": "hide[m]",
    "address": "Rosenheimer Str. 44 81669, Munich",
    "city": "Munich",
    "country": "德国",
    "coordinates": { "latitude": 48.1265, "longitude": 11.5955 },
    "brands": ["Rick Owens", "Boris Bidjan Saberi", "Guidi"],
    "style": ["暗黑", "先锋", "工匠"],
    "isOpen": true
  },
  {
    "id": "de-014",
    "name": "Werkstatt:München Workshop, Store & Atelier",
    "address": "Fraunhoferstraße 31 80469, Munich",
    "city": "Munich",
    "country": "德国",
    "coordinates": { "latitude": 48.1258, "longitude": 11.5762 },
    "brands": ["Werkstatt:München"],
    "style": ["工匠", "银饰"],
    "isOpen": true
  },
  {
    "id": "gr-001",
    "name": "Elixir Timeless Gallery",
    "address": "19, Dilou Str. 84600, Mykonos",
    "city": "Mykonos",
    "country": "希腊",
    "coordinates": { "latitude": 37.4467, "longitude": 25.3289 },
    "brands": ["设计师品牌"],
    "style": ["先锋"],
    "isOpen": true
  },
  {
    "id": "us-003",
    "name": "Hotoveli",
    "address": "85-101 N 3rd Street, unit 120 1249 Brooklyn, New York",
    "city": "New York",
    "country": "美国",
    "coordinates": { "latitude": 40.7174, "longitude": -73.9615 },
    "brands": ["设计师品牌"],
    "style": ["先锋", "暗黑"],
    "isOpen": true
  },
  {
    "id": "us-004",
    "name": "Atelier New York",
    "address": "20 W 8TH STREET NY 10011, New York",
    "city": "New York",
    "country": "美国",
    "coordinates": { "latitude": 40.7324, "longitude": -73.9963 },
    "brands": ["Rick Owens", "Comme des Garçons", "Boris Bidjan Saberi"],
    "style": ["先锋", "暗黑", "工匠"],
    "isOpen": true
  },
  {
    "id": "jp-003",
    "name": "The R",
    "address": "1-15-17 Minamihorie, Nishi-ku, 1st floor 550-0015, Osaka",
    "city": "Osaka",
    "country": "日本",
    "coordinates": { "latitude": 34.6742, "longitude": 135.4946 },
    "brands": ["设计师品牌"],
    "style": ["先锋"],
    "isOpen": true
  },
  {
    "id": "jp-004",
    "name": "FASCINATE",
    "address": "1F AVANZA Kitahorie 1-14-9 550-0014, Osaka",
    "city": "Osaka",
    "country": "日本",
    "coordinates": { "latitude": 34.6761, "longitude": 135.4951 },
    "brands": ["设计师品牌"],
    "style": ["先锋", "暗黑"],
    "isOpen": true
  },
  {
    "id": "jp-005",
    "name": "Loom",
    "address": "1 Chome-14-21 Kitahorie, Nishi Ward, Osaka",
    "city": "Osaka",
    "country": "日本",
    "coordinates": { "latitude": 34.6758, "longitude": 135.4948 },
    "brands": ["设计师品牌"],
    "style": ["先锋"],
    "isOpen": true
  },
  {
    "id": "no-001",
    "name": "HEVN",
    "address": "TORGGATA 36, Oslo",
    "city": "Oslo",
    "country": "挪威",
    "coordinates": { "latitude": 59.9189, "longitude": 10.7516 },
    "brands": ["设计师品牌"],
    "style": ["先锋"],
    "isOpen": true
  },
  {
    "id": "jp-006",
    "name": "ANNASTESIA",
    "address": "Nagoya, Daiichi Nishino Building 1F 460-0011, Osu",
    "city": "Nagoya",
    "country": "日本",
    "coordinates": { "latitude": 35.1575, "longitude": 136.9022 },
    "brands": ["设计师品牌"],
    "style": ["先锋"],
    "isOpen": true
  },
  {
    "id": "it-005",
    "name": "Prima Pagina",
    "address": "Via s. Lucia, 29 35139, Padua",
    "city": "Padua",
    "country": "意大利",
    "coordinates": { "latitude": 45.4071, "longitude": 11.8776 },
    "brands": ["设计师品牌"],
    "style": ["先锋"],
    "isOpen": true
  },
  {
    "id": "fr-001",
    "name": "Parts of Four",
    "address": "36 Rue Charlot 75003, Paris",
    "city": "Paris",
    "country": "法国",
    "coordinates": { "latitude": 48.8645, "longitude": 2.3631 },
    "brands": ["Parts of Four"],
    "style": ["工匠", "暗黑"],
    "isOpen": true
  },
  {
    "id": "fr-002",
    "name": "LECLAIREUR – HÉROLD",
    "address": "10 Rue Hérold, 75001, Paris",
    "city": "Paris",
    "country": "法国",
    "coordinates": { "latitude": 48.8636, "longitude": 2.3415 },
    "brands": ["Rick Owens", "Comme des Garçons", "设计师品牌"],
    "style": ["先锋", "暗黑"],
    "isOpen": true
  },
  {
    "id": "it-006",
    "name": "Officine Ferri",
    "address": "Vicolo della Torretta, 1, 2, 5 (Piazza San Lorenzo in Lucina) 00186, Rome",
    "city": "Rome",
    "country": "意大利",
    "coordinates": { "latitude": 41.9032, "longitude": 12.4774 },
    "brands": ["设计师品牌"],
    "style": ["先锋"],
    "isOpen": true
  },
  {
    "id": "nl-001",
    "name": "DEVASTATOR",
    "address": "Van Oldenbarneveltstraat 124a 3012GW, Rotterdam",
    "city": "Rotterdam",
    "country": "荷兰",
    "coordinates": { "latitude": 51.9176, "longitude": 4.4743 },
    "brands": ["设计师品牌"],
    "style": ["先锋", "暗黑"],
    "isOpen": true
  },
  {
    "id": "us-005",
    "name": "the archive",
    "address": "5911 Geary Blvd 94121, San Francisco",
    "city": "San Francisco",
    "country": "美国",
    "coordinates": { "latitude": 37.7803, "longitude": -122.4811 },
    "brands": ["Rick Owens", "Comme des Garçons"],
    "style": ["先锋", "暗黑"],
    "isOpen": true
  },
  {
    "id": "sg-001",
    "name": "Sects Shop",
    "address": "Orchard Gateway #04-14, Singapore",
    "city": "Singapore",
    "country": "新加坡",
    "coordinates": { "latitude": 1.3008, "longitude": 103.8395 },
    "brands": ["设计师品牌"],
    "style": ["先锋"],
    "isOpen": true
  },
  {
    "id": "sg-002",
    "name": "L'armoire",
    "address": "333A Orchard Road, Mandarin Gallery 238897, Singapore",
    "city": "Singapore",
    "country": "新加坡",
    "coordinates": { "latitude": 1.3015, "longitude": 103.8368 },
    "brands": ["设计师品牌"],
    "style": ["设计师品牌集合店"],
    "isOpen": true
  },
  {
    "id": "nl-002",
    "name": "Labels Fashion",
    "address": "Putstraat 10-12 6131HL, Sittard",
    "city": "Sittard",
    "country": "荷兰",
    "coordinates": { "latitude": 51.0006, "longitude": 5.8694 },
    "brands": ["设计师品牌"],
    "style": ["设计师品牌集合店"],
    "isOpen": true
  },
  {
    "id": "au-001",
    "name": "PIECES",
    "address": "4-8 Goulburn St, 2000, Sydney",
    "city": "Sydney",
    "country": "澳大利亚",
    "coordinates": { "latitude": -33.8762, "longitude": 151.2071 },
    "brands": ["设计师品牌"],
    "style": ["先锋"],
    "isOpen": true
  },
  {
    "id": "tw-001",
    "name": "IMMENSE",
    "address": "No.18, Ln. 177, Sec. 1, Dunhua S. Rd., Da'an Dist., Taipei City 106, Taipei City",
    "city": "Taipei",
    "country": "台湾",
    "coordinates": { "latitude": 25.0418, "longitude": 121.5494 },
    "brands": ["设计师品牌"],
    "style": ["先锋"],
    "isOpen": true
  },
  {
    "id": "il-001",
    "name": "INN7 Shabazi",
    "address": "Shabazi 40, Tel Aviv",
    "city": "Tel Aviv",
    "country": "以色列",
    "coordinates": { "latitude": 32.0583, "longitude": 34.7633 },
    "brands": ["设计师品牌"],
    "style": ["先锋"],
    "isOpen": true
  },
  {
    "id": "il-002",
    "name": "INN7 Ben Yehuda",
    "address": "Ben Yehuda 177, Tel Aviv",
    "city": "Tel Aviv",
    "country": "以色列",
    "coordinates": { "latitude": 32.0851, "longitude": 34.7704 },
    "brands": ["设计师品牌"],
    "style": ["先锋"],
    "isOpen": true
  },
  {
    "id": "il-003",
    "name": "INN7 Dizengoff",
    "address": "Dizengoff 220, Tel Aviv",
    "city": "Tel Aviv",
    "country": "以色列",
    "coordinates": { "latitude": 32.0843, "longitude": 34.7738 },
    "brands": ["设计师品牌"],
    "style": ["先锋"],
    "isOpen": true
  },
  {
    "id": "jp-007",
    "name": "Lift Daikanyama",
    "address": "Shibuya City, Daikanyamacho, 16−5, Tokyo",
    "city": "Tokyo",
    "country": "日本",
    "coordinates": { "latitude": 35.6491, "longitude": 139.7025 },
    "brands": ["设计师品牌"],
    "style": ["先锋"],
    "isOpen": true
  },
  {
    "id": "jp-008",
    "name": "boutiqueW",
    "address": "5-39-3 OSAKI SQUARE BLD 1F, Tokyo",
    "city": "Tokyo",
    "country": "日本",
    "coordinates": { "latitude": 35.6198, "longitude": 139.7289 },
    "brands": ["设计师品牌"],
    "style": ["先锋"],
    "isOpen": true
  },
  {
    "id": "jp-009",
    "name": "Gullam",
    "address": "6-11 Sarugakucho, Shibuya City 150-0033, Tokyo",
    "city": "Tokyo",
    "country": "日本",
    "coordinates": { "latitude": 35.6489, "longitude": 139.7019 },
    "brands": ["设计师品牌"],
    "style": ["先锋", "暗黑"],
    "isOpen": true
  },
  {
    "id": "it-007",
    "name": "Antonioli Torino",
    "address": "Piazza Carlo Emanuele II, 19, Torino",
    "city": "Torino",
    "country": "意大利",
    "coordinates": { "latitude": 45.0631, "longitude": 7.6908 },
    "brands": ["Rick Owens", "Comme des Garçons", "Maison Margiela"],
    "style": ["先锋", "暗黑"],
    "isOpen": true
  },
  {
    "id": "fr-003",
    "name": "NDE / Not Dark Enough",
    "address": "8, rue Baronie 31000, Toulouse",
    "city": "Toulouse",
    "country": "法国",
    "coordinates": { "latitude": 43.6045, "longitude": 1.4442 },
    "brands": ["设计师品牌"],
    "style": ["暗黑", "先锋"],
    "isOpen": true
  },
  {
    "id": "at-002",
    "name": "eigensinnig wien",
    "address": "Sankt-Ulrichs-Platz 4 1070, Vienna",
    "city": "Vienna",
    "country": "奥地利",
    "coordinates": { "latitude": 48.2015, "longitude": 16.3525 },
    "brands": ["设计师品牌"],
    "style": ["先锋"],
    "isOpen": true
  },
  {
    "id": "at-003",
    "name": "THE TREASURY",
    "address": "Palais Harrach, Freyung 3 1010, Vienna",
    "city": "Vienna",
    "country": "奥地利",
    "coordinates": { "latitude": 48.2112, "longitude": 16.3659 },
    "brands": ["设计师品牌"],
    "style": ["设计师品牌集合店"],
    "isOpen": true
  },
  {
    "id": "at-004",
    "name": "Wolfensson Habsburgergasse",
    "address": "Habsburgergasse 1-1A 1010, Vienna",
    "city": "Vienna",
    "country": "奥地利",
    "coordinates": { "latitude": 48.2082, "longitude": 16.3692 },
    "brands": ["设计师品牌"],
    "style": ["先锋"],
    "isOpen": true
  },
  {
    "id": "at-005",
    "name": "Wolfensson Margaretenstrasse",
    "address": "Margaretenstrasse 5 1040, Vienna",
    "city": "Vienna",
    "country": "奥地利",
    "coordinates": { "latitude": 48.1991, "longitude": 16.3645 },
    "brands": ["设计师品牌"],
    "style": ["先锋"],
    "isOpen": true
  }
]
